[
  {
    "id": 0,
    "title": "人民广场",
    "location": {
      "lat": 31.22967,
      "lng": 121.4762
    },
    "address": "上海市黄浦区人民大道120号"
  },
  {
    "id": 1,
    "title": "杜莎夫人蜡像馆",
    "location": {
      "lat": 31.23459,
      "lng": 121.47341
    },
    "address": " 上海市黄浦区南京西路68号新世界城10层"
  },
  {
    "id": 2,
    "title": "环球金融中心",
    "location": {
      "lat": 31.23487,
      "lng": 121.5074
    },
    "address": "上海市浦东新区世纪大道100号"
  },
  {
    "id": 3,
    "title": "外滩观光隧道",
    "location": {
      "lat": 31.2398,
      "lng": 121.49041
    },
    "address": "上海市黄浦区中山东一路外滩"
  },
  {
    "id": 4,
    "title": "马勒别墅",
    "location": {
      "lat": 31.22303,
      "lng": 121.45626
    },
    "address": "上海市静安区陕西南路30号"
  },
  {
    "id": 5,
    "title": "朱家角",
    "location": {
      "lat": 31.11257,
      "lng": 121.05053
    },
    "address": "上海市青浦区朱家角"
  },
  {
    "id": 6,
    "title": "泰晤士小镇",
    "location": {
      "lat": 31.02935,
      "lng": 121.19784
    },
    "address": "上海市松江区三新北路900弄"
  },
  {
    "id": 7,
    "title": "海湾国家森林公园",
    "location": {
      "lat": 30.86083,
      "lng": 121.68641
    },
    "address": "上海市奉贤区随塘河路1677号"
  },
  {
    "id": 8,
    "title": "迪士尼乐园",
    "location": {
      "lat": 31.14419,
      "lng": 121.66034
    },
    "address": "上海市浦东新区川沙新镇赵行村"
  },
  {
    "id": 9,
    "title": "野生动物园",
    "location": {
      "lat": 31.05522,
      "lng": 121.72216
    },
    "address": "中国上海市上海市浦东新区南六公路178号"
  }
]
